City_ID,City,Lat,Lng,Max Temp,Humidity,Cloudiness,Wind Speed,Country,Date
0,egvekinot,66.3167,-179.1667,-26.8,87,100,3.9,RU,1675727310
1,bairiki,1.3292,172.9752,30.0,66,75,5.66,KI,1675727310
2,bambanglipuro,-7.95,110.2833,24.07,93,100,1.89,ID,1675727311
3,yellowknife,62.456,-114.3525,-20.71,77,75,3.6,CA,1675727201
4,saskylakh,71.9167,114.0833,-35.86,100,97,1.1,RU,1675727311
5,port alfred,-33.5906,26.891,21.77,93,100,0.89,ZA,1675727312
6,kapaa,22.0752,-159.319,27.18,80,40,5.14,US,1675727312
7,torbay,47.6666,-52.7314,1.05,95,100,2.68,CA,1675727312
8,den helder,52.9599,4.7593,0.57,100,0,0.51,NL,1675727313
9,qaanaaq,77.484,-69.3632,-28.54,97,100,1.65,GL,1675727313
10,tuatapere,-46.1333,167.6833,16.83,65,86,6.23,NZ,1675727314
11,hilo,19.7297,-155.09,27.38,82,100,4.12,US,1675727314
12,hasaki,35.7333,140.8333,7.9,54,100,1.53,JP,1675727315
13,puerto ayora,-0.7393,-90.3518,27.53,85,52,4.47,EC,1675727226
14,abay,49.6311,72.8539,-12.79,97,99,3.05,KZ,1675727315
15,busselton,-33.65,115.3333,20.98,66,99,5.59,AU,1675727315
16,lebu,-37.6167,-73.65,14.74,82,0,8.35,CL,1675727316
17,rikitea,-23.1203,-134.9692,26.31,73,59,4.31,PF,1675727316
18,blythe,33.6103,-114.5964,21.25,14,0,7.72,US,1675727317
19,mataura,-46.1927,168.8643,14.3,90,75,3.24,NZ,1675727317
20,sun valley,39.5963,-119.776,5.13,51,0,3.13,US,1675727317
21,bereda,43.2686,-7.5406,-1.03,100,9,1.7,ES,1675727318
22,vaini,-21.2,-175.2,26.09,94,75,1.54,TO,1675727318
23,san patricio,28.017,-97.5169,24.19,77,31,7.83,US,1675727251
24,hermanus,-34.4187,19.2345,22.11,93,27,2.22,ZA,1675727319
25,rancho palos verdes,33.7445,-118.387,21.82,50,0,7.72,US,1675727039
26,kahului,20.8947,-156.47,28.32,66,40,11.32,US,1675727221
27,punta arenas,-53.15,-70.9167,14.06,77,75,5.14,CL,1675727138
28,new norfolk,-42.7826,147.0587,20.95,45,7,1.79,AU,1675727319
29,kruisfontein,-34.0033,24.7314,22.16,92,82,2.56,ZA,1675727094
30,vila velha,-20.3297,-40.2925,26.08,86,0,0.0,BR,1675727247
31,bengkulu,-3.8004,102.2655,24.12,83,89,2.63,ID,1675727320
32,iquique,-20.2208,-70.1431,24.02,81,82,2.81,CL,1675727146
33,nizhnevartovsk,60.9344,76.5531,-15.99,92,75,1.0,RU,1675727039
34,raudeberg,61.9875,5.1352,7.15,75,100,12.65,NO,1675727321
35,ancud,-41.8697,-73.8203,14.14,80,0,0.92,CL,1675727316
36,sterlibashevo,53.4376,55.2578,-15.75,100,92,1.19,RU,1675727321
37,mar del plata,-38.0023,-57.5575,21.16,72,0,6.69,AR,1675727086
38,dudinka,69.4058,86.1778,-21.88,99,100,2.22,RU,1675727322
39,bud,39.447,-86.1758,7.25,68,100,4.83,US,1675727322
40,atuona,-9.8,-139.0333,25.92,77,16,5.88,PF,1675727105
41,mehamn,71.0357,27.8492,4.97,75,20,10.29,NO,1675727142
42,bethel,41.3712,-73.414,5.17,68,20,4.63,US,1675727323
43,meadow lake,34.8014,-106.5436,9.71,37,58,8.01,US,1675727323
44,avarua,-21.2078,-159.775,29.03,79,20,5.14,CK,1675727077
45,yar-sale,66.8333,70.8333,-20.36,98,93,2.67,RU,1675727323
46,bambous virieux,-20.3428,57.7575,25.68,94,75,3.09,MU,1675727324
47,bredasdorp,-34.5322,20.0403,20.34,94,69,1.35,ZA,1675727101
48,butaritari,3.0707,172.7902,27.28,80,80,9.3,KI,1675727076
49,pincher creek,49.4833,-113.952,5.09,54,40,15.95,CA,1675727137
50,komsomolskiy,40.4272,71.7189,1.4,93,41,3.09,UZ,1675727324
51,jamestown,42.097,-79.2353,-0.55,95,100,2.06,US,1675727045
52,fortuna,40.5982,-124.1573,12.03,69,0,5.14,US,1675727325
53,south river,40.4465,-74.386,7.37,62,26,1.34,US,1675727172
54,torrington,41.8007,-73.1212,4.32,69,91,2.24,US,1675727214
55,hayden,47.766,-116.7866,5.9,82,100,4.12,US,1675727325
56,victoria,22.2855,114.1577,20.53,89,84,0.45,HK,1675727037
57,ribeira grande,38.5167,-28.7,13.76,72,89,6.26,PT,1675727290
58,port elizabeth,-33.918,25.5701,23.39,97,75,2.06,ZA,1675727326
59,sayyan,15.1718,44.3244,11.92,33,95,0.7,YE,1675727326
60,dustlik,40.5247,68.0358,3.21,66,21,2.12,UZ,1675727326
61,sept-iles,50.2001,-66.3821,-11.0,72,0,3.6,CA,1675727159
62,hobart,-42.8794,147.3294,21.14,48,40,4.12,AU,1675727263
63,harper,4.375,-7.7169,26.47,80,100,4.42,LR,1675727327
64,puerto carreno,6.189,-67.4859,26.99,69,75,5.14,CO,1675727328
65,khatanga,71.9667,102.5,-40.95,100,57,1.17,RU,1675727328
66,tigzirt,36.8886,4.1198,10.75,76,80,3.09,DZ,1675727329
67,hithadhoo,-0.6,73.0833,27.46,69,81,5.01,MV,1675727329
68,arlit,18.7369,7.3853,21.68,14,100,2.93,NE,1675727330
69,vao,-22.6667,167.4833,25.83,69,35,6.16,NC,1675727330
70,albany,42.6001,-73.9662,-0.15,67,84,0.89,US,1675727149
71,itapaci,-14.9508,-49.5494,22.45,85,53,0.75,BR,1675727331
72,aksu,41.1231,80.2644,-3.37,81,98,1.63,CN,1675727331
73,saldanha,-33.0117,17.9442,18.03,97,84,6.72,ZA,1675727332
74,ponta do sol,32.6667,-17.1,15.4,65,26,3.94,PT,1675727332
75,bluff,-46.6,168.3333,14.22,78,88,14.5,NZ,1675727332
76,omboue,-1.5746,9.2618,25.41,87,92,1.8,GA,1675727333
77,lavrentiya,65.5833,-171.0,-24.94,88,100,2.04,RU,1675727333
78,soyo,-6.1349,12.3689,26.05,84,58,1.96,AO,1675727333
79,pasni,25.2631,63.471,21.35,42,6,3.89,PK,1675727334
80,airai,-8.9266,125.4092,19.58,76,74,1.27,TL,1675727127
81,kununurra,-15.7667,128.7333,27.99,69,76,1.03,AU,1675727228
82,dunedin,-45.8742,170.5036,22.27,42,18,3.39,NZ,1675727290
83,thompson,55.7435,-97.8558,-12.91,78,75,5.66,CA,1675727334
84,nanortalik,60.1432,-45.2371,-15.28,84,78,4.86,GL,1675727334
85,barrow,71.2906,-156.7887,-22.99,77,100,3.6,US,1675727335
86,east london,-33.0153,27.9116,23.44,84,36,6.33,ZA,1675727335
87,ostrovnoy,68.0531,39.5131,-5.47,86,100,12.94,RU,1675727336
88,mount gambier,-37.8333,140.7667,19.64,55,8,3.72,AU,1675727336
89,hirara,24.8,125.2833,20.15,94,75,5.14,JP,1675727274
90,lagoa,39.05,-27.9833,12.77,70,100,11.22,PT,1675727337
91,cherskiy,68.75,161.3,-38.04,100,100,2.29,RU,1675727337
92,cape town,-33.9258,18.4232,21.62,89,40,4.63,ZA,1675727170
93,prince rupert,54.3161,-130.3201,5.83,92,0,4.12,CA,1675727095
94,severo-kurilsk,50.6789,156.125,-4.35,79,100,13.27,RU,1675727338
95,sao filipe,14.8961,-24.4956,20.2,62,20,7.78,CV,1675727338
96,takoradi,4.8845,-1.7554,26.27,87,88,5.0,GH,1675727254
97,nhamunda,-2.1861,-56.7131,24.26,90,94,1.07,BR,1675727339
98,isangel,-19.55,169.2667,31.06,84,75,1.03,VU,1675727113
99,dikson,73.5069,80.5464,-31.4,100,100,2.23,RU,1675727064
100,guerrero negro,27.9769,-114.0611,18.52,43,99,9.97,MX,1675727340
101,pundaguitan,6.3711,126.1689,25.18,81,100,6.22,PH,1675727340
102,cabo san lucas,22.8909,-109.9124,26.61,49,0,6.17,MX,1675727174
103,shieli,44.1667,66.75,-1.24,85,38,1.34,KZ,1675727341
104,teguise,29.0605,-13.564,14.12,67,20,3.09,ES,1675727341
105,kismayo,-0.3582,42.5454,24.59,87,8,6.62,SO,1675727342
106,college,64.8569,-147.8028,-11.62,88,75,0.0,US,1675727342
107,coquimbo,-29.9533,-71.3436,18.85,82,75,3.6,CL,1675727343
108,coihaique,-45.5752,-72.0662,16.97,45,20,4.63,CL,1675727208
109,zhigansk,66.7697,123.3711,-48.5,100,72,1.19,RU,1675727343
110,san antonio,29.4241,-98.4936,24.47,56,0,7.72,US,1675727341
111,upernavik,72.7868,-56.1549,-22.78,94,100,3.26,GL,1675727293
112,sur,22.5667,59.5289,20.88,61,61,0.71,OM,1675727345
113,te anau,-45.4167,167.7167,13.64,89,99,3.9,NZ,1675727345
114,saint-joseph,-21.3667,55.6167,24.21,84,78,4.83,RE,1675727346
115,vestmanna,62.1564,-7.1664,5.51,61,75,9.26,FO,1675727346
116,mount isa,-20.7333,139.5,25.87,89,100,5.66,AU,1675727277
117,alice springs,-23.7,133.8833,26.75,34,40,0.51,AU,1675727131
118,surt,31.2089,16.5887,12.25,56,89,2.85,LY,1675727347
119,ushuaia,-54.8,-68.3,10.81,87,100,6.69,AR,1675727348
120,ilulissat,69.2167,-51.1,-18.99,78,100,3.6,GL,1675727348
121,krusevac,43.58,21.3339,-2.8,72,53,1.54,RS,1675727349
122,san quintin,30.4833,-115.95,14.5,69,8,9.39,MX,1675727349
123,hobyo,5.3505,48.5268,24.64,77,59,7.47,SO,1675727350
124,marck,50.949,1.9433,1.67,86,1,2.66,FR,1675727350
125,turukhansk,65.8167,87.9833,-25.29,99,98,1.98,RU,1675727351
126,arraial do cabo,-22.9661,-42.0278,25.92,83,75,2.57,BR,1675727351
127,ashland,40.8167,-82.2665,0.49,86,53,3.13,US,1675727352
128,plettenberg bay,-34.0527,23.3716,20.35,97,66,2.68,ZA,1675727352
129,pisco,-13.7,-76.2167,25.03,83,0,8.23,PE,1675727353
130,mecca,21.4267,39.8261,20.41,74,80,2.97,SA,1675727201
131,kavieng,-2.5744,150.7967,27.84,79,97,3.7,PG,1675727159
132,boffa,10.1667,-14.0333,22.12,66,69,1.61,GN,1675727354
133,salalah,17.0151,54.0924,22.05,60,20,1.03,OM,1675727354
134,norman wells,65.282,-126.8329,-24.98,77,75,1.54,CA,1675727069
135,hamilton,39.1834,-84.5333,7.63,60,100,4.12,US,1675727192
136,kavaratti,10.5669,72.642,26.82,75,92,5.66,IN,1675727355
137,cortez,37.3489,-108.5859,2.42,53,0,6.69,US,1675727355
138,hofn,64.2539,-15.2082,0.83,83,62,9.46,IS,1675727356
139,santa marta,11.2408,-74.199,30.03,58,20,6.17,CO,1675727111
140,abu samrah,35.3029,37.1841,5.68,82,80,10.16,SY,1675727356
141,songkhla,6.8333,100.6667,23.03,96,100,1.13,TH,1675727170
142,touros,-5.1989,-35.4608,26.29,80,9,5.52,BR,1675727357
143,borogontsy,62.6683,131.1683,-42.11,100,100,0.91,RU,1675727357
144,la palma,33.8464,-118.0467,22.32,42,20,3.6,US,1675727358
145,contamana,-7.3333,-75.0167,23.57,92,68,1.05,PE,1675727359
146,saint anthony,45.0205,-93.218,2.03,86,100,4.63,US,1675727359
147,ilukste,55.9775,26.2966,-4.82,97,56,2.53,LV,1675727360
148,mercedes,-34.6515,-59.4307,28.21,37,6,4.53,AR,1675727360
149,nemuro,43.3236,145.575,-4.22,86,100,4.61,JP,1675727361
150,tigil,57.8,158.6667,-19.01,95,100,2.87,RU,1675727361
151,chokurdakh,70.6333,147.9167,-34.16,100,99,0.86,RU,1675727362
152,sainte-martine,45.2501,-73.7992,-8.03,73,48,0.0,CA,1675727363
153,yellandu,17.6,80.3333,17.99,73,69,1.04,IN,1675727353
154,taltal,-25.4,-70.4833,22.08,74,37,2.54,CL,1675727160
155,lensk,60.7253,114.9278,-27.2,99,100,0.62,RU,1675727366
156,tuktoyaktuk,69.4541,-133.0374,-40.0,67,75,0.0,CA,1675727368
157,nikolskoye,59.7035,30.7861,-3.06,98,91,1.46,RU,1675727368
158,lucapa,-8.4192,20.7447,18.13,84,77,1.21,AO,1675727368
159,samarai,-10.6167,150.6667,26.42,84,100,4.79,PG,1675727369
160,berdychiv,49.8993,28.6024,-6.13,95,98,3.56,UA,1675727369
161,jadu,31.953,12.0261,6.69,63,63,4.35,LY,1675727369
162,surajgarh,28.3124,75.7347,14.5,41,0,3.77,IN,1675727370
163,grand gaube,-20.0064,57.6608,25.77,80,85,1.79,MU,1675727370
164,basoko,1.2391,23.616,24.38,56,66,1.27,CD,1675727371
165,sinazongwe,-17.2614,27.4618,23.27,79,40,0.54,ZM,1675727371
166,san pedro,14.35,121.0167,25.7,85,40,0.51,PH,1675727183
167,mahon,39.8885,4.2658,10.31,93,75,3.09,ES,1675727086
168,casas grandes,30.3667,-107.95,16.62,16,2,12.15,MX,1675727372
169,riviere-au-renard,48.9957,-64.3971,-11.84,73,94,7.27,CA,1675727372
170,constitucion,-35.3333,-72.4167,15.54,81,22,5.11,CL,1675727372
171,daokou,35.5639,114.5058,2.12,70,93,3.12,CN,1675727373
172,bilma,18.6853,12.9164,17.46,18,18,4.02,NE,1675727373
173,mananara,-16.1667,49.7667,23.09,94,100,1.59,MG,1675727373
174,ewa beach,21.3156,-158.0072,28.97,61,20,7.72,US,1675727374
175,saint-pierre,-21.3393,55.4781,24.82,73,75,2.06,RE,1675727374
176,tiksi,71.6872,128.8694,-34.69,100,91,1.89,RU,1675727375
177,dour,50.3958,3.7779,2.33,88,8,3.26,BE,1675727375
178,nawada,24.8833,85.5333,13.11,48,0,2.38,IN,1675727376
179,clyde river,70.4692,-68.5914,-31.87,68,20,2.57,CA,1675727376
180,iqaluit,63.7506,-68.5145,-32.15,68,40,5.66,CA,1675727376
181,katsuura,35.1333,140.3,11.09,62,100,3.59,JP,1675727377
182,simao,22.7886,100.9748,8.47,52,1,0.96,CN,1675727377
183,tura,25.5198,90.2201,13.4,54,0,1.48,IN,1675727377
184,beyneu,45.3167,55.2,2.32,84,100,9.08,KZ,1675727378
185,gemona,46.2794,13.1431,-0.82,76,46,1.73,IT,1675727378
186,jennings,38.7192,-90.2604,15.1,57,0,6.69,US,1675727378
187,praia,14.9215,-23.5087,20.3,56,75,12.86,CV,1675727377
188,pevek,69.7008,170.3133,-35.51,100,100,1.46,RU,1675727379
189,najran,17.4924,44.1277,18.36,64,76,2.48,SA,1675727380
190,georgetown,5.4112,100.3354,25.96,94,20,0.51,MY,1675727113
191,nueva gerona,21.8833,-82.8,25.24,67,6,2.27,CU,1675727380
192,tuburan,6.6439,122.2736,25.05,76,98,2.0,PH,1675727380
193,chuy,-33.6971,-53.4616,20.94,79,81,2.92,UY,1675727381
194,estelle,29.8458,-90.1067,20.0,65,40,4.12,US,1675727381
195,lakatoro,-16.0999,167.4164,25.65,89,100,3.31,VU,1675727382
196,esperance,-33.8667,121.9,21.1,82,7,8.18,AU,1675727382
197,arman,59.7,150.1667,-26.54,81,82,3.75,RU,1675727289
198,bathsheba,13.2167,-59.5167,26.34,69,20,7.72,BB,1675727154
199,kodiak,57.79,-152.4072,2.73,60,0,4.12,US,1675727383
200,talcahuano,-36.7167,-73.1167,19.82,56,1,5.66,CL,1675727182
201,husavik,66.0449,-17.3389,-2.05,66,57,7.36,IS,1675727383
202,cachira,7.741,-73.0483,13.63,91,84,2.46,CO,1675727383
203,barao de melgaco,-16.1944,-55.9675,24.49,82,93,1.5,BR,1675727384
204,gazanjyk,39.2446,55.5154,7.7,56,0,5.07,TM,1675727384
205,langfang,39.5097,116.6947,-1.81,60,0,1.95,CN,1675727385
206,ludvika,60.1496,15.1878,0.19,91,76,4.49,SE,1675727385
207,siauliai,55.9333,23.3167,-0.99,93,75,5.66,LT,1675727385
208,franco da rocha,-23.3217,-46.7269,22.6,95,45,1.56,BR,1675727386
209,hay river,60.8156,-115.7999,-17.01,78,100,3.6,CA,1675727386
210,castro,-24.7911,-50.0119,18.61,72,58,1.04,BR,1675727387
211,port hedland,-20.3167,118.5667,30.03,79,34,3.09,AU,1675727280
212,shu,43.5983,73.7614,-2.01,93,100,0.68,KZ,1675727388
213,bonthe,7.5264,-12.505,24.46,80,100,2.39,SL,1675727388
214,talnakh,69.4865,88.3972,-22.11,98,100,2.56,RU,1675727205
215,monrovia,6.3005,-10.7969,23.87,89,41,3.21,LR,1675727137
216,cobija,-11.0267,-68.7692,21.75,97,92,0.87,BO,1675727388
217,aripuana,-9.1667,-60.6333,22.38,95,43,1.3,BR,1675727389
218,naze,28.3667,129.4833,18.51,80,41,6.49,JP,1675727389
219,dulce grande,23.0,-102.1667,24.01,13,3,2.26,MX,1675727390
220,mattru,7.6244,-11.8332,23.3,78,95,0.7,SL,1675727390
221,tasiilaq,65.6145,-37.6368,-10.91,92,97,3.23,GL,1675727390
222,yerbogachen,61.2767,108.0108,-30.82,100,93,1.1,RU,1675727391
223,picota,-6.9197,-76.3304,28.27,81,88,0.56,PE,1675727391
224,zaysan,47.4667,84.8667,-10.75,76,72,2.51,KZ,1675727392
225,osypenko,46.9136,36.8253,-4.03,71,98,8.24,UA,1675727392
226,longyearbyen,78.2186,15.6401,-3.97,92,100,17.74,SJ,1675727392
227,hue,16.4667,107.6,23.06,94,75,0.51,VN,1675727108
228,marawi,7.9986,124.2928,21.73,83,100,0.6,PH,1675727393
229,haverfordwest,51.8017,-4.9691,3.65,90,37,1.92,GB,1675727393
230,pandan,14.0453,124.1694,25.73,86,77,4.85,PH,1675727231
231,el alto,-4.2714,-81.2147,26.81,76,69,3.97,PE,1675727394
232,faanui,-16.4833,-151.75,27.43,75,10,6.56,PF,1675727394
233,elko,41.0002,-115.5012,0.01,85,68,3.02,US,1675727215
234,boa vista,2.8197,-60.6733,25.99,78,40,3.09,BR,1675727395
235,carnarvon,-24.8667,113.6333,25.3,61,0,9.08,AU,1675727395
236,sunrise manor,36.2111,-115.0731,16.73,23,0,8.23,US,1675727396
237,santa barbara,34.7333,-120.0343,16.05,37,0,5.66,US,1675727185
238,khani,41.9563,42.9566,3.76,70,100,0.63,GE,1675727396
239,gamba,-2.65,10.0,25.72,83,95,0.81,GA,1675727118
240,ketchikan,55.3422,-131.6461,7.26,57,100,0.0,US,1675727397
241,barreirinhas,-2.7469,-42.8264,24.63,88,96,2.29,BR,1675727397
242,labuhan,-6.8844,112.2051,25.22,85,100,3.22,ID,1675727287
243,maraba,-5.3686,-49.1178,27.1,100,75,1.54,BR,1675727398
244,praia da vitoria,38.7333,-27.0667,12.64,94,40,11.38,PT,1675727398
245,moba,33.2288,105.0179,2.05,70,97,0.56,CN,1675727399
246,pitimbu,-7.4706,-34.8086,25.33,67,85,5.24,BR,1675727399
247,aksarka,66.5606,67.7975,-26.06,100,97,1.25,RU,1675727399
248,kulhudhuffushi,6.6221,73.07,26.81,76,100,4.58,MV,1675727400
249,grindavik,63.8424,-22.4338,0.26,59,75,16.98,IS,1675727400
250,haines junction,60.7522,-137.5108,0.97,32,88,2.06,CA,1675727401
251,sao joao da barra,-21.6403,-41.0511,26.05,92,97,2.62,BR,1675727401
252,eydhafushi,5.1033,73.0708,26.86,76,92,4.27,MV,1675727255
253,zapolyarnyy,69.4154,30.8136,-0.4,90,100,8.79,RU,1675727401
254,kuusamo,65.9667,29.1833,-3.98,93,100,3.6,FI,1675727402
255,souillac,-20.5167,57.5167,24.21,94,75,3.09,MU,1675727404
256,hami,42.8,93.45,0.76,41,100,1.56,CN,1675727372
257,oneida,43.2001,-75.4663,-0.55,76,0,2.57,US,1675727405
258,yulara,-25.2406,130.9889,30.34,16,0,5.57,AU,1675727406
259,rocha,-34.4833,-54.3333,20.24,96,3,2.24,UY,1675727186
260,ploemeur,47.7333,-3.4333,5.53,73,0,5.66,FR,1675727406
261,pacific grove,36.6177,-121.9166,15.44,71,0,6.26,US,1675727407
262,xinzhou,38.4092,112.7333,-2.04,49,31,0.3,CN,1675727408
263,charters towers,-20.1,146.2667,29.38,61,71,5.43,AU,1675727409
264,bergerac,44.8333,0.5,3.26,80,0,1.54,FR,1675727409
265,moron,-34.6534,-58.6198,30.94,53,0,4.28,AR,1675727410
266,kasongo-lunda,-6.4667,16.8167,20.31,92,87,0.83,CD,1675727410
267,kupiskis,55.8333,24.9667,-2.9,97,89,3.08,LT,1675727411
268,krasnoselkup,65.7,82.4667,-17.87,97,100,2.62,RU,1675727412
269,bolshaya rechka,51.9503,104.7355,-23.75,99,82,1.05,RU,1675727413
270,maine-soroa,13.2114,12.0241,21.13,14,96,4.39,NE,1675727413
271,jiuquan,39.7432,98.5174,-3.97,46,2,2.59,CN,1675727414
272,tyret pervaya,53.6703,102.3106,-25.03,100,100,0.92,RU,1675727415
273,aktau,43.65,51.2,1.32,75,100,5.81,KZ,1675727415
274,iranshahr,27.2025,60.6848,16.36,38,11,0.2,IR,1675727416
275,saint-augustin,51.226,-58.6502,-20.37,88,85,2.93,CA,1675727416
276,provideniya,64.3833,-173.3,-16.94,66,100,6.0,RU,1675727416
277,antsohihy,-14.8796,47.9875,22.23,97,100,1.28,MG,1675727417
278,moree,-29.4667,149.85,28.97,45,46,5.06,AU,1675727292
279,stephenville,32.2207,-98.2023,21.8,54,0,6.69,US,1675727418
280,troitsko-pechorsk,62.7084,56.1964,-25.03,100,100,0.84,RU,1675727418
281,keti bandar,24.1447,67.4497,20.77,76,2,3.61,PK,1675727419
282,vardo,70.3705,31.1107,0.99,93,100,13.38,NO,1675727174
283,pita,10.8333,-12.5833,24.77,38,96,0.75,GN,1675727419
284,hokitika,-42.7167,170.9667,17.77,70,99,2.72,NZ,1675727420
285,scarborough,54.2797,-0.4044,3.28,86,53,0.89,GB,1675727420
286,cabedelo,-6.9811,-34.8339,25.37,72,61,5.44,BR,1675727421
287,chaoyang,41.5703,120.4586,-4.23,44,100,1.07,CN,1675727422
288,the valley,18.217,-63.0578,25.61,78,20,5.66,AI,1675727423
289,ngama,11.7833,17.1667,21.38,17,46,5.07,TD,1675727423
290,korla,41.7597,86.1469,-0.36,61,100,0.71,CN,1675727423
291,yacuiba,-22.038,-63.6797,23.85,66,97,1.95,BO,1675727424
292,teya,60.3778,92.6267,-23.89,100,100,0.9,RU,1675727424
293,sitka,57.0531,-135.33,2.94,87,100,2.06,US,1675727425
294,mikkeli,61.6886,27.2723,-7.14,92,0,0.51,FI,1675727426
295,taksimo,56.3444,114.8794,-18.87,88,100,1.65,RU,1675727428
296,broome,42.2506,-75.833,-0.55,80,100,4.12,US,1675727152
297,auki,-8.7676,160.7034,29.44,66,98,3.05,SB,1675727429
298,wencheng,33.0559,113.7978,4.91,77,37,1.68,CN,1675727429
299,catamarca,-28.4696,-65.7852,27.55,44,8,3.49,AR,1675727225
300,sapa,5.1544,120.3241,27.22,74,64,0.14,PH,1675727430
301,labrea,-7.2586,-64.7981,23.31,97,100,0.9,BR,1675727430
302,asau,46.4333,26.4,-5.49,92,70,2.27,RO,1675727431
303,myaundzha,63.0494,147.1858,-37.18,98,96,1.25,RU,1675727431
304,portales,34.1862,-103.3344,17.74,15,1,2.35,US,1675727432
305,darnah,32.767,22.6367,9.91,73,90,6.39,LY,1675727297
306,ballina,-28.8667,153.5667,25.99,73,96,3.23,AU,1675727432
307,djibo,14.1022,-1.6306,27.55,13,100,4.08,BF,1675727433
308,cayenne,4.9333,-52.3333,24.02,94,75,1.03,GF,1675727165
309,onega,63.9061,38.1404,-14.83,99,97,1.56,RU,1675727433
310,rosarito,32.3333,-117.0333,19.12,55,0,6.93,MX,1675727287
311,fairlie,55.756,-4.8556,8.43,87,100,2.24,GB,1675727434
312,narsaq,60.9167,-46.05,-16.88,64,29,3.87,GL,1675727434
313,mon,26.75,95.1,11.88,76,57,1.0,IN,1675727435
314,glasgow,55.8652,-4.2576,8.32,85,100,5.66,GB,1675727435
315,belaya gora,68.5333,146.4167,-31.9,100,100,0.66,RU,1675727435
316,meulaboh,4.1363,96.1285,23.58,81,98,0.71,ID,1675727436
317,romitan,39.9343,64.3814,1.97,87,0,3.09,UZ,1675727436
318,helsinki,60.1695,24.9355,-2.16,91,0,1.54,FI,1675727293
319,vilcun,-38.65,-72.2333,17.32,52,0,1.89,CL,1675727437
320,port lincoln,-34.7333,135.8667,20.08,70,0,6.38,AU,1675727437
321,paamiut,61.994,-49.6678,-13.82,93,100,4.01,GL,1675727437
322,waipawa,-41.4122,175.5153,22.72,53,6,2.21,NZ,1675727438
323,san cristobal,7.7669,-72.225,25.1,72,55,0.62,VE,1675727438
324,silver city,32.7701,-108.2803,9.81,33,1,5.36,US,1675727395
325,kushima,31.4583,131.2333,12.54,92,100,5.4,JP,1675727438
326,mgachi,51.05,142.2667,-16.76,94,100,1.9,RU,1675727439
327,flinders,-34.5833,150.8552,22.36,85,90,1.08,AU,1675727439
328,tanete,-3.9443,119.7848,26.97,79,92,1.48,ID,1675727439
329,gao,16.6362,1.637,25.45,12,97,4.38,ML,1675727440
330,luanda,-8.8368,13.2343,26.0,83,40,2.57,AO,1675727441
331,quatre cocos,-20.2078,57.7625,25.61,81,85,5.81,MU,1675727441
332,mandiana,10.6333,-8.6833,26.13,18,98,0.95,GN,1675727442
333,serebryansk,49.6925,83.2892,-7.98,95,99,1.79,KZ,1675727442
334,tsiroanomandidy,-18.7667,46.0333,19.42,96,100,1.49,MG,1675727442
335,constantine,36.365,6.6147,6.67,87,75,1.03,DZ,1675727442
336,codrington,-38.2667,141.9667,17.71,67,69,5.22,AU,1675727443
337,ngunguru,-35.6167,174.5,22.55,56,8,1.69,NZ,1675727443
338,sola,-13.8833,167.55,26.74,72,100,2.54,VU,1675727444
339,jega,12.2175,4.3792,26.28,17,100,4.55,NG,1675727444
340,koslan,63.4564,48.8989,-23.71,100,100,1.28,RU,1675727444
341,beringovskiy,63.05,179.3167,-26.24,90,97,3.88,RU,1675727445
342,nelson bay,-32.7167,152.15,27.27,68,70,5.39,AU,1675727445
343,rio gallegos,-51.6226,-69.2181,19.03,39,75,8.23,AR,1675727313
344,bako,5.7833,36.5667,19.39,43,28,1.76,ET,1675727446
345,santomera,38.0615,-1.0488,10.46,77,88,0.89,ES,1675727446
346,tecoanapa,16.5167,-98.75,27.44,64,2,3.88,MX,1675727446
347,sistranda,63.7256,8.834,4.98,74,99,4.48,NO,1675727447
348,luba,3.4568,8.5547,25.94,85,48,4.17,GQ,1675727447
349,kiunga,-6.1219,141.2906,25.4,88,99,1.69,PG,1675727447
350,cilegon,-6.0174,106.0538,25.76,80,100,1.0,ID,1675727448
351,kenai,60.5544,-151.2583,0.08,92,100,5.14,US,1675727448
352,puerto escondido,15.85,-97.0667,27.46,65,75,0.0,MX,1675727449
353,north bend,43.4065,-124.2243,11.25,71,100,0.0,US,1675727449
354,rafai,4.95,23.9167,21.62,26,16,0.88,CF,1675727449
355,pervoye maya,56.164,44.7196,-20.14,100,100,0.54,RU,1675727450
356,padang,-0.9492,100.3543,22.03,80,85,1.76,ID,1675727451
357,shaowu,27.3409,117.4831,12.85,96,94,0.81,CN,1675727451
358,veere,51.5483,3.6667,3.0,94,10,1.54,NL,1675727452
359,dickinson,29.4608,-95.0513,21.05,75,75,9.77,US,1675727452
360,port hardy,50.6996,-127.4199,8.1,100,100,4.12,CA,1675727453
361,lethem,3.3803,-59.7968,27.45,63,54,5.65,GY,1675727453
362,nizhniy tsasuchey,50.5167,115.1333,-19.69,93,20,2.86,RU,1675727453
363,peleduy,59.6289,112.7406,-20.76,99,100,0.48,RU,1675727454
364,francisco beltrao,-26.0811,-53.055,20.75,56,56,0.8,BR,1675727454
365,broken hill,-31.95,141.4333,26.69,25,1,6.78,AU,1675727454
366,nouadhibou,20.931,-17.0347,15.99,67,0,8.75,MR,1675727455
367,botwood,49.1499,-55.3482,-6.72,95,100,3.52,CA,1675727455
368,ushirombo,-3.4919,31.9639,15.9,95,95,1.36,TZ,1675727456
369,kaitangata,-46.2817,169.8464,18.84,55,39,2.74,NZ,1675727456
370,bozoum,6.3193,16.3799,22.11,18,15,1.35,CF,1675727456
371,nishihara,26.1842,127.7558,20.6,89,75,6.17,JP,1675727457
372,muscat,23.6139,58.5922,19.01,59,59,1.03,OM,1675727370
373,sabinov,49.1031,21.0988,-5.28,95,62,2.29,SK,1675727457
374,goderich,43.7501,-81.7165,-1.82,74,36,3.09,CA,1675727375
375,matay,28.419,30.7792,9.41,50,67,3.12,EG,1675727458
376,aasiaat,68.7098,-52.8699,-19.63,94,100,3.04,GL,1675727459
377,umm lajj,25.0213,37.2685,19.04,49,97,3.47,SA,1675727459
378,olinda,-8.0089,-34.8553,26.85,69,40,2.06,BR,1675727459
379,christchurch,-43.5333,172.6333,28.56,49,9,5.14,NZ,1675727279
380,port blair,11.6667,92.75,25.02,88,40,0.0,IN,1675727460
381,challapata,-18.9,-66.7667,10.86,67,76,2.76,BO,1675727460
382,horsham,51.064,-0.3272,4.23,86,20,0.51,GB,1675727460
383,saint-philippe,-21.3585,55.7679,24.77,87,87,4.61,RE,1675727461
384,imeni stepana razina,54.8932,44.2963,-20.03,100,93,1.94,RU,1675727462
385,beboto,8.2668,16.939,23.18,15,26,2.13,TD,1675727463
386,mahebourg,-20.4081,57.7,25.7,94,75,3.09,MU,1675727463
387,moerai,-22.4333,-151.3333,26.58,75,97,4.26,PF,1675727464
388,acajutla,13.5928,-89.8275,26.71,60,0,3.27,SV,1675727464
389,san juan,-31.5375,-68.5364,33.17,15,30,4.67,AR,1675727172
390,honiara,-9.4333,159.95,28.17,77,99,3.76,SB,1675727465
391,agartala,23.8364,91.275,13.68,53,0,1.3,IN,1675727465
392,sechura,-5.5569,-80.8222,26.17,66,46,6.0,PE,1675727466
393,marquette,46.5333,-87.6335,-2.88,83,100,5.36,US,1675727467
394,khanpur,28.6453,70.6567,14.28,49,0,3.62,PK,1675727467
395,catuday,16.2923,119.8062,25.44,75,91,3.7,PH,1675727468
396,calabazar de sagua,22.6447,-79.8961,25.26,78,40,5.14,CU,1675727468
397,namibe,-15.1961,12.1522,21.29,79,71,2.18,AO,1675727469
398,flin flon,54.7682,-101.865,-9.09,67,100,4.63,CA,1675727469
399,calca,-13.3333,-71.95,15.64,86,92,2.56,PE,1675727470
400,saint george,37.1041,-113.5841,11.33,36,75,3.58,US,1675727275
401,riachao,-7.3619,-46.6172,23.59,82,70,1.72,BR,1675727471
402,semnan,35.5729,53.3971,8.91,34,75,2.06,IR,1675727422
403,mamallapuram,12.6264,80.1722,24.03,80,5,0.84,IN,1675727472
404,tartagal,-22.5164,-63.8013,26.46,51,98,2.08,AR,1675727473
405,klaksvik,62.2266,-6.589,6.51,67,100,13.39,FO,1675727253
406,buraydah,26.326,43.975,15.25,44,100,3.55,SA,1675727473
407,shreveport,32.5251,-93.7502,22.12,61,75,7.72,US,1675727312
408,kalianget,-7.05,113.9333,25.24,84,100,4.15,ID,1675727474
409,olafsvik,64.8945,-23.7142,0.17,58,100,16.93,IS,1675727475
410,honningsvag,70.9821,25.9704,4.86,81,100,8.75,NO,1675727475
411,celestun,20.8667,-90.4,24.15,75,43,6.62,MX,1675727476
412,dingle,10.9995,122.6711,25.75,85,100,4.11,PH,1675727477
413,irbil,36.1926,44.0106,9.9,71,75,5.14,IQ,1675727477
414,noshiro,40.2039,140.0242,-0.54,75,42,1.27,JP,1675727477
415,pangoa,-12.1167,-73.0,20.5,97,99,0.35,PE,1675727478
416,westport,41.1415,-73.3579,6.05,65,75,6.17,US,1675727276
417,segou,13.4317,-6.2157,27.59,13,100,3.13,ML,1675727479
418,siilinjarvi,63.0833,27.6667,-5.99,86,0,2.06,FI,1675727479
419,los llanos de aridane,28.6585,-17.9182,13.86,63,100,3.09,ES,1675727480
420,lages,-27.8161,-50.3261,16.06,69,23,1.42,BR,1675727480
421,sibolga,1.7427,98.7792,24.13,82,100,1.71,ID,1675727480
422,deogarh,21.5333,84.7333,14.12,40,0,1.05,IN,1675727481
423,canatlan,24.5167,-104.7833,21.55,12,36,8.14,MX,1675727481
424,bull savanna,17.8868,-77.5902,23.61,78,38,3.73,JM,1675727391
425,nyurba,63.2842,118.3319,-42.28,100,93,0.58,RU,1675727482
426,fairbanks,64.8378,-147.7164,-11.62,87,75,0.0,US,1675727393
427,kohlu,29.8962,69.252,8.31,26,0,1.63,PK,1675727482
428,turbat,26.0023,63.044,19.48,17,35,2.49,PK,1675727483
429,novaya ladoga,60.1025,32.3019,-10.23,100,92,1.2,RU,1675727483
430,kamaishi,39.2667,141.8833,4.83,69,100,1.02,JP,1675727484
431,bam,29.106,58.357,13.69,35,5,1.92,IR,1675727484
432,aklavik,68.2191,-135.0107,-34.0,68,40,1.03,CA,1675727256
433,tabligbo,6.5833,1.5,26.62,82,100,3.83,TG,1675727485
434,boyolangu,-8.1181,111.8935,23.61,92,100,0.49,ID,1675727486
435,malia,35.2833,25.4667,8.92,82,100,7.13,GR,1675727486
436,groa,62.65,8.7167,3.4,79,100,5.66,NO,1675727487
437,necochea,-38.5473,-58.7368,17.1,64,18,7.53,AR,1675727487
438,shubarkuduk,49.1447,56.4872,-15.05,91,74,3.99,KZ,1675727488
439,natal,-5.795,-35.2094,26.36,83,40,3.09,BR,1675727241
440,lagunas,-5.2269,-75.6753,24.6,81,100,0.85,PE,1675727488
441,kiama,-34.6833,150.8667,22.47,89,96,0.96,AU,1675727489
442,ulkan,57.243,107.3223,-14.17,96,100,2.27,RU,1675727489
443,mallaig,54.2169,-111.3685,1.88,84,92,4.31,CA,1675727490
444,porto novo,6.4965,2.6036,26.9,86,100,4.08,BJ,1675727430
445,merrill,45.1805,-89.6835,1.01,77,100,5.66,US,1675727331
446,cidreira,-30.1811,-50.2056,23.81,75,6,4.09,BR,1675727490
447,maumere,-8.6199,122.2111,27.19,80,85,4.02,ID,1675727490
448,leningradskiy,69.3833,178.4167,-31.55,97,99,3.57,RU,1675727491
449,camacha,33.0833,-16.3333,13.68,55,75,7.2,PT,1675727491
450,srandakan,-7.9386,110.2506,24.17,92,100,1.95,ID,1675727492
451,abbotsford,49.058,-122.2526,8.71,87,100,3.6,CA,1675727407
452,sri aman,1.2376,111.4621,23.03,100,100,0.0,MY,1675727492
453,takaka,-40.85,172.8,23.09,44,6,1.64,NZ,1675727493
454,shakawe,-18.3667,21.85,19.25,96,100,1.73,BW,1675727493
455,luderitz,-26.6481,15.1594,17.68,93,10,6.27,NA,1675727494
456,ahipara,-35.1667,173.1667,22.1,58,18,3.78,NZ,1675727495
457,alcaniz,41.05,-0.1333,3.51,85,68,2.19,ES,1675727495
458,aketi,2.7388,23.7833,20.96,42,15,1.3,CD,1675727496
459,aswan,24.0934,32.907,12.61,50,0,2.57,EG,1675727496
460,bay roberts,47.5999,-53.2648,1.48,95,100,2.24,CA,1675727449
461,roald,62.5833,6.1333,9.51,66,100,5.66,NO,1675727496
462,moose factory,51.2585,-80.6094,-8.0,62,100,4.63,CA,1675727497
463,cap malheureux,-19.9842,57.6142,25.82,80,81,1.79,MU,1675727497
464,atambua,-9.1061,124.8925,25.5,77,65,1.38,ID,1675727498
465,bosobolo,4.1833,19.9,23.55,32,15,1.04,CD,1675727498
466,half moon bay,37.4636,-122.4286,16.62,54,0,6.69,US,1675727235
467,ankang,32.68,109.0172,7.62,62,94,1.79,CN,1675727499
468,hambantota,6.1241,81.1185,24.23,87,96,4.59,LK,1675727499
469,dasoguz,41.8363,59.9666,-0.03,86,0,6.17,TM,1675727500
470,kijang,35.2442,129.2139,2.85,64,78,4.4,KR,1675727500
471,zhanaozen,43.3,52.8,2.93,82,100,6.34,KZ,1675727501
472,havelock,34.8791,-76.9013,13.99,72,0,2.57,US,1675727405
473,walvis bay,-22.9575,14.5053,18.53,88,72,4.63,NA,1675727501
474,hong gai,20.956,107.0946,19.5,96,100,2.59,VN,1675727501
475,poum,-20.2333,164.0167,27.39,81,95,6.01,NC,1675727502
476,ginir,7.1333,40.7,13.52,27,15,1.84,ET,1675727502
477,daru,-9.0763,143.2092,24.84,92,100,4.61,PG,1675727502
478,denpasar,-8.65,115.2167,26.81,88,40,6.17,ID,1675727442
479,mayo,38.8876,-76.5119,8.41,59,75,5.66,US,1675727503
480,tahta,26.7693,31.5021,8.88,40,79,2.93,EG,1675727503
481,palestina,31.9216,35.2033,4.8,95,74,15.4,PS,1675727503
482,tual,-5.6667,132.75,27.24,78,99,6.48,ID,1675727504
483,mbanza-ngungu,-5.25,14.8667,19.6,96,66,1.67,CD,1675727504
484,matagami,49.7502,-77.6328,-12.94,72,0,4.12,CA,1675727505
485,barda,40.3744,47.1267,5.62,85,100,0.8,AZ,1675727505
486,phrae,18.0833,100.0,16.37,100,7,0.0,TH,1675727506
487,moussoro,13.6408,16.4901,20.91,18,87,6.17,TD,1675727506
488,abu dhabi,24.4667,54.3667,20.01,76,0,1.54,AE,1675727506
489,menongue,-14.6585,17.691,17.85,80,97,1.56,AO,1675727507
490,portland,45.5234,-122.6762,10.45,84,100,3.6,US,1675727478
491,tikhvin,59.6451,33.5294,-13.88,100,90,1.69,RU,1675727507
492,wilmington,34.2257,-77.9447,11.08,60,4,1.34,US,1675727294
493,amahai,-3.3333,128.9167,27.18,76,100,1.49,ID,1675727508
494,lima,-12.0432,-77.0282,24.14,69,0,6.69,PE,1675727455
495,alofi,-19.0595,-169.9187,29.94,70,40,3.6,NU,1675727508
496,victor harbor,-35.5667,138.6167,22.04,80,1,4.55,AU,1675727509
497,pringsewu,-5.3582,104.9744,23.7,90,100,0.31,ID,1675727509
498,haikou,20.0458,110.3417,22.07,94,75,2.0,CN,1675727510
499,yankton,42.8711,-97.3973,3.4,87,0,7.72,US,1675727510
500,antofagasta,-23.65,-70.4,21.6,83,30,1.7,CL,1675727498
501,tadine,-21.55,167.8833,27.54,71,88,4.74,NC,1675727511
502,independence,39.0911,-94.4155,18.44,62,75,10.8,US,1675727511
503,kovernino,57.1253,43.8142,-8.76,97,100,0.92,RU,1675727511
504,geraldton,-28.7667,114.6,21.23,73,100,5.66,AU,1675727259
505,port macquarie,-31.4333,152.9167,27.16,59,46,3.17,AU,1675727512
506,fare,-16.7,-151.0167,27.16,77,1,6.8,PF,1675727512
507,puerto castilla,16.0167,-85.9667,25.97,78,40,2.06,HN,1675727513
508,vostok,46.4856,135.8833,-16.61,92,100,1.98,RU,1675727513
509,magistralnyy,56.1725,107.4458,-15.77,95,100,1.54,RU,1675727514
510,san vicente,-26.6167,-54.1333,21.81,46,56,1.16,AR,1675727514
511,araouane,18.9048,-3.5265,21.85,13,100,4.27,ML,1675727475
512,lobito,-12.3481,13.5456,24.63,81,99,3.51,AO,1675727514
513,marienburg,54.0359,19.0266,-0.07,94,16,2.42,PL,1675727515
514,nicoya,10.1483,-85.452,26.09,65,15,6.87,CR,1675727516
515,sioux lookout,50.1001,-91.917,1.04,69,100,5.66,CA,1675727516
516,seoul,37.5683,126.9778,-0.31,97,40,1.54,KR,1675727516
517,palaikastron,35.2,26.25,9.01,64,87,12.76,GR,1675727517
518,snyder,32.7179,-100.9176,25.19,20,0,4.63,US,1675727517
519,laguna,38.421,-121.4238,16.99,41,0,6.69,US,1675727518
520,itarema,-2.9248,-39.9167,25.91,80,98,4.67,BR,1675727518
521,siyabuswa,-25.1132,29.0445,20.76,62,10,3.01,ZA,1675727519
522,yelizovo,53.1873,158.3805,-13.92,66,40,3.0,RU,1675727519
523,karratha,-20.7377,116.8463,30.91,57,2,0.83,AU,1675727520
524,mutsu,41.2894,141.2169,-0.02,73,80,2.22,JP,1675727520
525,lompoc,34.6391,-120.4579,18.72,54,20,9.26,US,1675727521
526,nyrob,60.733,56.7202,-25.74,100,96,1.33,RU,1675727521
527,lucea,18.451,-78.1736,26.92,76,12,4.34,JM,1675727521
528,vila franca do campo,37.7167,-25.4333,13.23,92,99,7.16,PT,1675727522
529,zwedru,6.0667,-8.1281,23.22,92,98,1.92,LR,1675727523
530,santa rosa,14.3122,121.1114,27.23,80,83,3.68,PH,1675727523
531,boone,39.0334,-92.3335,18.14,63,100,1.79,US,1675727524
532,astana,51.1801,71.446,-17.03,85,100,5.0,KZ,1675727525
533,lakes entrance,-37.8811,147.981,19.22,62,20,2.95,AU,1675727232
534,adrar,20.5022,-10.0711,16.21,24,30,4.19,MR,1675727526
535,iwanai,42.9744,140.5089,-2.01,68,98,3.95,JP,1675727526
536,sfantu gheorghe,45.8667,25.7833,-8.19,97,97,0.49,RO,1675727527
537,de-kastri,51.4667,140.7833,-18.09,87,51,1.05,RU,1675727527
538,langarud,37.197,50.1535,7.03,65,29,1.26,IR,1675727528
539,mandera,3.9366,41.867,24.81,48,5,5.58,KE,1675727529
540,xiaoshan,30.1675,120.2588,8.92,100,75,2.0,CN,1675727529
541,namatanai,-3.6667,152.4333,28.72,70,95,2.38,PG,1675727530
542,erzin,36.9559,36.2,6.25,94,100,1.44,TR,1675727530
543,kutum,14.2,24.6667,16.01,19,55,3.94,SD,1675727531
544,nabinagar,23.8917,90.9733,13.84,53,0,1.44,BD,1675727532
545,trairi,-3.2778,-39.2689,25.43,84,85,3.16,BR,1675727418
546,viedma,-40.8135,-62.9967,19.7,48,33,7.2,AR,1675727533
547,rio grande,-32.035,-52.0986,25.06,74,2,4.64,BR,1675727533
548,novikovo,51.1537,37.8879,-10.01,95,56,3.57,RU,1675727533
549,mikuni,36.2171,136.1519,2.95,71,100,1.67,JP,1675727534
550,hollister,36.8525,-121.4016,16.19,53,0,3.09,US,1675727534
551,turayf,31.6725,38.6637,6.14,56,46,10.29,SA,1675727535
552,soledad,10.9184,-74.7646,27.07,74,0,6.17,CO,1675727527
553,noyabrsk,63.1994,75.4507,-14.7,96,100,3.58,RU,1675727536
554,tortoli,39.9256,9.6572,4.9,87,75,5.14,IT,1675727536
555,sandakan,5.8402,118.1179,24.82,94,20,1.54,MY,1675727537
556,farmington,36.7281,-108.2187,7.38,33,0,6.17,US,1675727537
557,riberalta,-10.9833,-66.1,29.11,74,75,2.06,BO,1675727538
558,shingu,33.7333,135.9833,11.9,56,81,3.18,JP,1675727538
559,kailua,21.4022,-157.7394,28.99,75,75,5.14,US,1675727388
560,tabas,33.5959,56.9244,8.12,61,86,1.03,IR,1675727539
561,sambava,-14.2667,50.1667,23.68,89,99,2.74,MG,1675727539
562,taonan,45.3333,122.7833,-16.39,83,10,1.8,CN,1675727539
563,nueve de julio,-35.4444,-60.8831,21.12,76,35,6.01,AR,1675727540
564,inta,66.0317,60.1659,-19.36,98,99,3.59,RU,1675727540
565,pimentel,-6.8367,-79.9342,27.16,57,0,9.26,PE,1675727541
566,saint-georges,12.0564,-61.7485,25.82,78,75,6.17,GD,1675727541
